"id","name","alt_name","latitude","longitude"
"61","KALIMANTAN BARAT","KALIMANTAN BARAT","-0.13224","111.09689"
"62","KALIMANTAN TENGAH","KALIMANTAN TENGAH","-1.49958","113.29033"
"63","KALIMANTAN SELATAN","KALIMANTAN SELATAN","-2.94348","115.37565"
"64","KALIMANTAN TIMUR","KALIMANTAN TIMUR","0.78844","116.242"
"65","KALIMANTAN UTARA","KALIMANTAN UTARA","2.72594","116.911"
