"id","name","alt_name","latitude","longitude"
"71","SULAWESI UTARA","SULAWESI UTARA","0.65557","124.09015"
"72","SULAWESI TENGAH","SULAWESI TENGAH","-1.69378","120.80886"
"73","SULAWESI SELATAN","SULAWESI SELATAN","-3.64467","119.94719"
"74","SULAWESI TENGGARA","SULAWESI TENGGARA","-3.54912","121.72796"
"75","GORONTALO","GORONTALO","0.71862","122.45559"
"76","SULAWESI BARAT","SULAWESI BARAT","-2.49745","119.3919"
